cidade,latitude,longitude,distancia
Abadia Dos Dourados,-18.4910634,-47.406365,1552.55313558
Abaetetuba,-1.71806,-48.8825,3346.38949759
Abaiara,-7.33642,-39.06129,3036.3319761
Abatia,-23.3052967,-50.3102532,959.381034699
Abdon Batista,-27.58981,-51.04023,480.395003631
Abelardo Luz,-26.59825,-52.22321,573.565011354
Abreulândia,-9.43672,-49.31733,2492.67488294
Acauã,-8.31552,-40.91283,2854.06530339
Aceguá,-31.64597,-54.10715,167.852167494
Acreúna,-17.43605,-50.26696,1601.73134834
Adamantina,-21.68528,-51.0725,1124.69960657
Aguai,46.3001342,11.4044046,10757.1085541
Agudo,-29.62631,-53.22404,252.417765572
Ajuricaba,-28.20723,-53.74458,417.662292319
Alcinópolis,-18.19955,-53.75814,1510.22137287
Alecrim,-27.65897,-54.75943,512.34865231
Alegrete,-29.78306,-55.79194,397.013268623
Alegrete Do Piauí,-7.2440138,-40.8602296,2965.72207372
Alfenas,-21.42917,-45.94722,1310.3379634
Almeirim,-1.52333,-52.58167,3348.21687567
Almenara,-16.18361,-40.69444,2090.86455951
Alpestre,-27.22135,-53.05749,509.144784103
Alpinópolis,-20.86361,-46.38806,1346.1934414
Alta Floresta,-10.01997,-56.30288,2442.88919939
Altamira,-3.20333,-52.20639,3162.38659161
Alto Alegre,2.98858,-61.307167,3962.28171466
Alto Araguaia,-17.31472,-53.21528,1603.84512865
Alto Bela Vista,-27.40999,-51.93145,485.139680716
Alto Garças,-16.81961,-53.62461,1661.28004236
Alto Paraguai,-14.76851,-56.72113,1935.14863208
Alto Piquiri,-24.02806,-53.44056,864.931038685
Alvorada,-12.48,-49.12472,2161.65784445
Alvorada Do Norte,-14.483911,-46.4959897,2005.07462403
Amambaí,-23.1271,-54.9579,992.112042341
Amaral Ferrador,-30.80769,-52.29964,106.988562014
Americana,-22.73917,-47.33139,1116.75235067
Amparo,-22.70111,-46.76444,1146.4398729
Américo Brasiliense,-21.72444,-48.10167,1190.17877894
Anadia,-9.68444,-36.30417,2952.91025003
Ananindeua,-1.36556,-48.37222,3391.34624733
Andradas,-22.06806,-46.56917,1217.9862237
Angatuba,-23.48972,-48.41278,996.129218742
Angra Dos Reis,-23.0063966,-44.316326,1253.49866556
Anta Gorda,-28.96836,-51.97107,312.844810104
Antônio Prado,-28.87322,-51.31744,336.121662463
Antônio Prado De Minas,-21.0171988,-42.1101106,1567.29901108
Anápolis,-16.32667,-48.95278,1744.83617291
Aparecida,-22.84694,-45.22972,1213.1783005
Aparecida De Goiânia,-16.8226769,-49.2452546,1685.19836766
Apiaí,-24.50944,-48.8425,875.037322909
Apucarana,-23.55083,-51.46083,915.154203606
Aquidauana,-20.47111,-55.78722,1298.32038588
Aracaju,-10.91111,-37.07167,2793.29491173
Aracruz,-19.82028,-40.27333,1791.15831056
Aragarças,-15.8975,-52.25083,1758.28782365
Araguari,-18.64722,-48.18722,1512.62204329
Araguatins,-5.64071,-48.08859,2926.6090678
Arambaré,-30.91331,-51.55614,121.089352955
Araputanga,-15.17477,-58.49729,1941.66990494
Araranguá,-28.93575,-49.49538,416.8327008
Araraquara,-21.79444,-48.17556,1180.30260564
Araras,-22.35694,-47.38417,1152.93890949
Araruama,-22.87278,-42.34306,1395.61858539
Aratiba,-27.37708,-52.29009,487.177277721
Aratuba,-4.41898,-39.04818,3331.31966543
Araçatuba,-21.20889,-50.43278,1185.66914139
Arcos,-20.28194,-45.53944,1442.71018734
Arcoverde,-8.41889,-37.05389,3031.5342856
Ariquemes,-9.91333,-63.04083,2659.98683984
Armênia,40.7696272,44.6736646,12776.2748525
Arraial Do Cabo,-22.9662839,-42.024427,1410.58395026
Arroio Do Padre,-31.4865518,-52.2651903,32.4828167231
Arroio Grande,-32.2375,-53.08694,87.2516399073
Arroio do Meio,-29.40111,-51.945,265.586028015
Arroio do Tigre,-29.26209,-53.0606,286.652156167
Arroio dos Ratos,-30.07722,-51.72917,196.821843824
Arujá,-23.39611,-46.32083,1101.71057761
Arvorezinha,-28.86971,-52.19631,322.042294547
Assis,-22.66167,-50.41222,1027.37723438
Assis Brasil,-10.88334,-70.01314,2941.50905592
Assis Chateaubriand,-24.40824,-53.53328,824.385799269
Assunção,-7.07371,-36.69894,3180.62256652
Astorga,-23.2325,-51.66556,948.631273076
Atibaia,-23.11694,-46.55028,1116.48655823
Augusto Pestana,-28.54034,-53.97927,391.387770563
Auriflama,-20.68556,-50.55472,1241.15330444
Açailândia,-4.69214,-47.34302,3042.85911046
Bacabal,-4.29167,-44.79167,3142.72633026
Baependi,-21.95889,-44.89,1314.60050242
Bagé,-31.33139,-54.10694,174.507090966
Balneário Camboriú,-26.99056,-48.63472,640.533911488
Barbacena,-21.22583,-43.77361,1446.10193731
Barbosa Ferraz,-24.06134,-52.05494,854.948882667
Bariri,-22.07444,-48.74028,1132.27680627
Barra Do Piraí,-22.4703403,-43.8263256,1331.23271505
Barra Do Quaraí,-30.2085757,-57.5510078,526.742236869
Barra Velha,-26.63222,-48.68472,671.489488826
Barra do Garças,-15.89,-52.25667,1759.11471792
Barracão,-26.252395,-53.6349576,624.572464256
Barreiras,-12.15278,-44.99,2299.6345783
Barretos,-20.55722,-48.56778,1298.25122276
Barueri,-23.51056,-46.87611,1062.14569044
Barão,-29.39636,-51.5462,274.211063839
Barão de Cotegipe,-27.55108,-52.44751,467.980082609
Batatais,-20.89111,-47.585,1295.26954783
Bauru,-22.31472,-49.06056,1097.14129644
Bebedouro,-20.94944,-48.47917,1259.25052414
Bela Vista,-22.10889,-56.52111,1147.98411392
Bela Vista De Goiás,-16.9692949,-48.9513071,1675.04551005
Belford Roxo,-22.76417,-43.39944,1333.12000586
Belo Horizonte,-19.92083,-43.93778,1558.59033666
Belém,-1.45056,-48.4682453,3380.78086194
Bento Gonçalves,-29.17139,-51.51917,298.938900363
Bernardino de Campos,-23.01306,-49.47417,1011.05151955
Bertolínia,-7.75477,-43.79588,2802.89405942
Betim,-19.96778,-44.19833,1540.23042131
Birigui,-21.28861,-50.34,1178.47095885
Bissau,11.861324,-15.583055,6218.5977083
Bituruna,-26.18538,-51.54497,624.043332293
Blumenau,-26.91944,-49.06611,624.825795411
Boa Vista,2.81972,-60.67333,3928.51690429
Boa Vista Da Aparecida,-25.4357216,-53.4067721,709.90066422
Boa Vista Do Gurupi,-1.7981168,-46.3071882,3377.75604898
Boa Vista do Buricá,-27.68021,-54.10928,484.676308505
Bogotá,4.5980772,-74.0761028,4637.76374494
Bom Despacho,-19.73639,-45.25222,1510.16957542
Bom Jesus,-9.07444,-44.35861,2645.14888349
Bom Jesus da Lapa,-13.255,-43.41806,2244.28751891
Bom Princípio,-29.46171,-51.36405,272.756647114
Bom Retiro do Sul,-29.63558,-51.91097,240.426237623
Boqueirão do Leão,-29.31252,-52.39841,272.708279443
Bossoroca,-28.67113,-54.96188,426.281926688
Botucatu,-22.88583,-48.445,1057.26104082
Bragança,-1.05361,-46.76556,3450.28447641
Bragança Paulista,-22.9527,-46.54418,1132.64955402
Brasília,-15.77972,-47.92972,1826.93655157
Breves,-1.68222,-50.48028,3336.29471698
Brochier,-29.55754,-51.59193,255.815484761
Brusque,-27.09795,-48.91281,615.645652435
Bueno Brandão,-22.44083,-46.35083,1191.88662509
Buenos Aires,-7.72,-35.32,3194.74513557
Buriti Alegre,-18.14,-49.04028,1546.18806799
Buritis,-15.61778,-46.42333,1887.29317738
Butiá,-30.11972,-51.96222,186.748406086
CIUDAD BOLÍVAR,8.1080955,-63.551078,4571.53674416
Cabo Frio,-22.88717,-42.02622,1416.77056693
Cabo Verde,-21.48702,-46.37999,1284.29064806
Cabreúva,-23.3075,-47.13278,1069.43406117
Cacequi,-29.88361,-54.825,316.589198087
Cachoeira Paulista,-22.70115,-44.99229,1240.21348786
Cachoeira do Sul,-30.03917,-52.89389,199.207915477
Cachoeirinha,-29.9493353,-51.0898927,234.906651393
Cachoeiro de Itapemirim,-20.84889,-41.11278,1647.60011755
Cacique Doble,-27.8173,-51.68271,442.98225034
Cacoal,-11.43861,-61.44722,2438.11001402
Caconde,-21.52944,-46.64389,1268.16894696
Caetanópolis,-19.33473,-44.41002,1590.44525831
Caibaté,-28.30429,-54.65585,444.426050761
Caieiras,-23.36417,-46.74056,1083.06743244
Cajamar,-23.35611,-46.87694,1077.05730562
Cajuru,-21.27528,-47.30417,1266.29241802
Camaquã,-30.85111,-51.81222,113.893562621
Cambará do Sul,-29.06727,-50.11848,368.16197246
Camboriú,-27.07562,-48.7153,628.268250172
Cambé,-23.27583,-51.27833,947.311462006
Campina Grande,-7.23056,-35.88111,3209.76820786
Campina das Missões,-27.98729,-54.8302,483.440620538
Campinas,-22.89703,-47.04441,1113.99671119
Campinas do Piauí,-7.67905,-41.87938,2879.76102673
Campinas do Sul,-27.70629,-52.63937,451.583725192
Campo Alegre,-9.78194,-36.35083,2941.04657883
Campo Bom,-29.66716,-51.05054,264.121112596
Campo Erê,-26.45834,-53.18257,594.590140019
Campo Formoso,-10.5075,-40.32139,2660.15643208
Campo Grande,-20.4640173,-54.6162947,1273.18746897
Campo Mourão,-24.04309,-52.37929,856.510440222
Campos Belos,-13.03667,-46.77167,2151.58869849
Campos De Júlio,-13.7223646,-59.2645296,2120.08030253
Campos Do Jordão,-22.7398924,-45.5915028,1202.84858318
Campos Novos,-27.40167,-51.225,496.365900982
Campos Verdes,-14.19022,-49.65835,1966.29337365
Campos dos Goytacazes,-21.75227,-41.33044,1557.57714169
Canarana,-11.68472,-41.76889,2475.03475456
Candelária,-29.66917,-52.78889,237.010544206
Candiota,-31.49089,-53.70274,132.753232386
Canela,-29.35622,-50.81357,305.337697428
Canguçu,-31.395,-52.67556,52.404302348
Canoas,-29.91778,-51.18361,233.546611374
Canápolis,-18.7228793,-49.2016329,1479.55296037
Capela Do Alto Alegre,-11.6703944,-39.8362745,2569.57306122
Capela Nova,-20.91843,-43.61587,1483.46529751
Capinzal,-27.34361,-51.61194,495.934276924
Capivari,-22.995,-47.50778,1083.41164403
Capão Da Canoa,-29.7542937,-50.0215684,315.275624883
Capão do Leão,-31.84324,-52.55323,21.4631541919
Caraguatatuba,-23.62028,-45.41306,1132.08208191
Carapeguá,-25.767636,-57.2425331,819.384856609
Caratinga,-19.78972,-42.13917,1674.08549531
Carazinho,-28.28389,-52.78639,389.023135076
Carlos Chagas,-17.70306,-40.76639,1946.2944195
Carmo Do Cajuru,-20.19530355,-44.6988759173,1492.38300426
Carmo Do Rio Claro,-20.972223,-46.118611,1347.41308185
Carmésia,-19.06534,-43.18402,1680.56508632
Carrasco Bonito,-5.31027,-48.0336,2963.64611062
Caruaru,-8.28333,-35.97611,3104.06152779
Cascavel,-24.9616762,-53.4360666,762.313189179
Castelo Branco,39.8204214,-7.4992062,9177.65985632
Castelo Do Piauí,-5.3202651,-41.5520972,3137.05113932
Catanduva,-21.13778,-48.97278,1224.98788857
Catanduvas,-21.5631242,-45.4406831,1322.56882793
Catuípe,-28.19806,-54.05868,429.374418403
Caxias do Sul,-29.16806,-51.17944,309.513051426
Caçapava,-23.10083,-45.70694,1162.78338832
Caçapava do Sul,-30.51436,-53.48496,176.943636485
Ceres,-15.30833,-49.59833,1844.63065234
Cerquilho,-23.165,-47.74361,1056.19075731
Cerrito,-31.73952,-52.78378,41.9623353372
Cerro Branco,-29.63374,-52.98725,244.96333979
Cerro Grande do Sul,-30.58623,-51.74239,143.369035642
Cerro Largo,-28.14861,-54.73806,463.41711165
Chapada,-28.10434,-53.08861,412.887164825
Chapecó,-27.09639,-52.61833,518.943170844
Charqueadas,-29.95472,-51.62528,212.825329346
Chavantes,-23.03889,-49.70944,1002.02285377
Chiapetta,-27.9763,-53.92051,447.495947735
Chopinzinho,-25.85583,-52.52333,655.93875581
Chuvisca,-30.77649,-52.00221,115.028492079
Chuy,-33.6937948,-53.4561114,237.316678627
Chuí,-33.69111,-53.45667,237.073029958
Cidreira,-30.18111,-50.20556,269.764249301
Coari,-4.085,-63.14139,3266.24377385
Colatina,-19.53944,-40.63056,1791.53945286
Colorado,-22.8375,-51.97306,990.694887012
Colômbia,-20.29302,-48.72328,1322.05589881
Conceição Das Pedras,-22.16,-45.454167,1264.90538362
Concórdia,-27.23417,-52.02778,503.910373981
Concórdia do Pará,-1.86154,-47.96322,3342.51961984
Condor,-28.19261,-53.49261,411.998307694
Congonhinhas,-23.62943,-50.49858,920.408752812
Conselheiro Lafaiete,-20.66028,-43.78611,1497.50643299
Constantina,-27.70625,-53.00221,455.167260885
Contagem,-19.93167,-44.05361,1551.3534812
Coronel Bicaco,-27.79949,-53.6531,458.200705855
Coronel Fabriciano,-19.51861,-42.62889,1669.61704571
Coronel Freitas,-26.89431,-52.76329,542.18519045
Coronel Sapucaia,-23.33759,-55.38899,981.722393231
Coronel Vivida,-25.97972,-52.56778,642.35170573
Corumbatai,-22.6368509,-47.6823253,1112.19235785
Corumbá,-19.00917,-57.65333,1510.84292812
Corumbá De Goiás,-15.9268355,-48.8074659,1791.21365782
Cosmópolis,-22.64583,-47.19611,1132.05732146
Costa Rica,-23.41667,-54.65,953.408138483
Cotia,-23.60389,-46.91917,1050.98050661
Crato,-7.23417,-39.40944,3030.3805963
Criciúma,-28.6775,-49.36972,446.689824486
Crissiumal,-27.48087,-54.14173,506.533712181
Cristal,-31.02454,-52.02929,88.0599605281
Cristalina,-16.76769,-47.6153,1729.27132132
Crixas,-14.5424536,-49.9694813,1923.43136589
Cruz Alta,-28.64397,-53.60633,367.476410591
Cruz Machado,-25.91086,-51.22563,658.669999412
Cruzeiro,-22.57316,-44.97108,1253.16715438
Cruzeiro Do Sul,-7.6307956,-72.6703869,3403.91028385
Cruzeiro do Sul,-7.62759,-72.67756,3404.65879921
Cubatão,-23.895,-46.42528,1049.14764739
Cuiabá,-15.59611,-56.09667,1831.65524946
Cunha,-23.07444,-44.95972,1208.21749076
Cunha Porã,-26.86612,-53.2102,550.253946154
Curionópolis,-6.18137,-49.66441,2846.72334803
Curitiba,-25.42778,-49.27306,764.420017038
CÁLI,3.4319329,-76.5113048,4660.77595222
Cáceres,-16.42263,-57.71082,1784.81076092
Cássia,-20.58306,-46.92194,1352.29575096
Cândido Godói,-27.89509,-54.74128,488.250164941
Cândido Mota,-22.74639,-50.38694,1018.61894291
Cúcuta,7.8971458,-72.5080387,4885.9740146
Dallas,32.7762719,-96.7968559,8536.57506741
Descalvado,-21.90389,-47.61944,1189.5111382
Descanso,-26.87384,-53.48415,554.109023308
Desterro De Entre Rios,-20.66,-44.332223,1467.24293363
Diadema,-23.68611,-46.62278,1058.28406638
Dionísio Cerqueira,-26.3334,-53.53403,613.843906187
Divino De São Lourenço,-20.6202438,-41.6838343,1629.31326517
Divinópolis,-20.14355,-44.89065,1487.72084793
Divinópolis De Goiás,-13.2905914,-46.3950744,2135.02983821
Dois Irmãos,-29.61158,-51.09333,267.738397946
Dois Irmãos Do Buriti,-20.7589944,-55.327600225,1255.88712181
Dom Feliciano,-30.6139,-52.19315,129.181757412
Dom Pedrito,-30.98278,-54.67306,238.332079513
Domingos Martins,-20.36333,-40.65917,1719.1840074
Dona Francisca,-29.58683,-53.33964,260.407852055
Dourados,-22.22111,-54.80556,1086.03740931
Doutor Maurício Cardoso,-27.4954,-54.364,512.834652072
Duque De Caxias,-22.7896225,-43.309929,1336.834843
Eldorado Do Sul,-29.9984639,-51.3091977,220.045665188
Elói Mendes,-21.61,-45.56528,1311.67956897
Embu,-23.64889,-46.85222,1050.01776675
Embu-Guaçu,-23.85336,-46.83957,1031.07758381
Encantado,-29.23611,-51.86972,284.763465993
Encruzilhada do Sul,-30.54389,-52.52194,137.227240643
Engenho Velho,-27.67698,-52.9104,457.228947853
Entre Ijuís,-28.361628,-54.2670019,421.107206442
Entre Rios De Minas,-20.670834,-44.065556,1480.8459601
Erechim,-27.63461,-52.2754,458.659468887
Erval Grande,-27.36138,-52.57486,489.408269151
Erval Velho,-27.29027,-51.38648,505.331857519
Esperança Do Sul,-27.3617442,-53.9909736,514.263147398
Espumoso,-28.72472,-52.84972,341.312466646
Espírito Santo Do Pinhal,-22.192,-46.7853137255,1195.74811585
Estação,-27.93562,-52.29516,425.281401767
Esteio,-29.86139,-51.17917,239.279005869
Estrela,-28.06111,-50.93833,433.107645965
Estrela de Alagoas,-9.39858,-36.76219,2953.83181381
Estância Velha,-29.64833,-51.17389,260.685624314
Euclides Da Cunha,-10.5060835,-39.0129875,2725.56432426
Eunápolis,-16.3775,-39.58028,2138.80176011
Farroupilha,-29.225,-51.34778,298.061986184
Fartura,-23.38833,-49.51,970.073919703
Faxinal dos Guedes,-26.8315,-52.26214,547.659504313
Feira de Santana,-12.26667,-38.96667,2558.11874513
Feliz,-29.45459,-51.27775,276.446124596
Fernandópolis,-20.28389,-50.24639,1289.84780114
Ferraz De Vasconcelos,-23.541056,-46.37097,1085.34001888
Flores da Cunha,-29.02889,-51.18167,323.90000137
Floriano,-6.76694,-43.0225,2932.93337512
Florianópolis,-27.59667,-48.54917,590.6562519
Fontoura Xavier,-29.01054,-52.36771,306.136092958
Formosa do Rio Preto,-11.04833,-45.19306,2409.66939459
Fortaleza,-3.71722,-38.54306,3424.75592155
Foz do Iguaçu,-25.54778,-54.58806,723.850727678
Fraiburgo,-27.0479,-50.80694,544.398037827
Franca,-20.53861,-47.40083,1338.54625296
Francisco Beltrão,-26.08111,-53.055,634.55204454
Francisco Morato,-23.28167,-46.74528,1090.79782285
Frechen,50.9096219,6.8081935,10837.7752687
Frederico Westphalen,-27.35917,-53.39444,499.63430957
Frei Gaspar,-18.14006,-41.49292,1863.00895667
Frutal,-20.02472,-48.94056,1345.10335452
Fátima Do Sul,-22.377,-54.5415435086,1063.53309997
Gama,12.03373335,8.55359285995,8094.9264582
Garanhuns,-8.88202,-36.50216,3017.54841671
Garibaldi,-29.25611,-51.53361,289.509717109
Garopaba,-28.02744,-48.6145,549.394164875
Garça,-22.21056,-49.65611,1092.35526074
Gaspar,-26.93139,-48.95889,629.045634209
Gehrden,52.313508,9.6008438,11086.1588744
General Francisco Caballero Álvarez,-24.1556231,-54.6656297,874.361584378
Getúlio Vargas,-27.87411,-52.16526,432.412462773
Giruá,-28.02833,-54.34972,458.002071205
Goiatuba,-18.0125,-49.35472,1553.57231942
Goiás,-15.93444,-50.14028,1768.31758128
Goiânia,-16.67861,-49.25389,1700.73446903
Governador Valadares,-18.85111,-41.94944,1770.79701675
Gramado,-29.36252,-50.90318,300.681117273
Gravataí,-29.94218,-50.99278,240.447154162
Guajará-Mirim,-11.33108,-64.44095,2582.34387413
Guanambi,-14.22333,-42.78139,2173.97493833
Guaporema,-23.31022,-52.82479,938.87614638
Guaporé,-28.84556,-51.89028,327.313803945
Guaraciaba,-20.5718037,-43.0057078,1551.10084833
Guarani das Missões,-28.15071,-54.60026,456.724885632
Guaraniaçu,-25.10083,-52.87806,741.195786452
Guarantã Do Norte,-9.9517992,-54.9098178,2430.511825
Guaranésia,-21.29917,-46.8025,1284.42190004
Guarapari,-20.67182,-40.50196,1704.08268673
Guarapuava,-25.39048,-51.46541,712.429975599
Guararema,-23.415,-46.035,1115.37270172
Guaratinguetá,-22.81639,-45.1925,1218.11712195
Guarujá,-23.99306,-46.25639,1049.37031351
Guarulhos,-23.46278,-46.53333,1084.2096731
Guaxupé,-21.30528,-46.71278,1287.65553749
Guaçuí,-20.77556,-41.67944,1616.18293903
Guaíba,-30.11389,-51.325,207.953685294
Guaíra,-20.31833,-48.31056,1331.21378489
Gurupi,-11.72917,-49.06861,2244.74083335
Herval,-32.02361,-53.39556,103.451637796
Herveiras,-29.43864,-52.67366,260.61761419
Holambra,-22.63825,-47.06501,1138.69539408
Horizontina,-27.62583,-54.30778,497.353816807
Hortolândia,-22.85833,-47.22,1109.80586441
Hulha Negra,-31.57199,-53.86271,145.85208015
Humaitá,-7.51651,-63.03105,2905.42438543
Ibaté,-21.95472,-47.99667,1170.01744142
Ibiaçá,-28.10474,-51.80283,409.838122057
Ibirapuitã,-28.61696,-52.47077,349.965984657
Ibirubá,-28.6275,-53.08972,355.924642794
Ibiuna,-23.6548363,-47.2210116,1031.21403363
Igrejinha,-29.57444,-50.79028,285.433144263
Iguai,-14.752754,-40.089417,2259.63816406
Iguaraçu,-23.23375,-51.85341,947.368940319
Iguatu,-6.35944,-39.29861,3123.56164689
Ijuí,-28.38778,-53.91472,404.595093178
Ilha Solteira,-20.43278,-51.3425,1260.23982826
Ilha de São Nicolau,37.8631824,-25.7966658,8186.96492585
Ilhéus,-14.79364,-39.03949,2316.41970534
Ilópolis,-28.9169,-52.14813,317.056173413
Imaruí,-28.19624,-48.82316,521.892983084
Imbituba,-28.24,-48.67028,527.947423433
Imperatriz,-5.52639,-47.49167,2949.15442409
Indaial,-26.89778,-49.23167,618.91280824
Indaiatuba,-23.08842,-47.2119,1087.33872906
Inhumas,-16.35778,-49.49611,1731.46117067
Ipatinga,-19.46833,-42.53667,1679.62466124
Iporã do Oeste,-26.99157,-53.49023,541.442709459
Ipumirim,-27.04778,-52.14024,524.006933381
Iraquara,-12.24861,-41.61944,2425.24501464
Iraí,-27.27078,-53.23696,506.401693101
Itabaiana,-10.6856197,-37.4270517,2794.25667294
Itabera,-5.731121,-35.2529935,3388.19299519
Itaberaba,-12.5275,-40.30694,2461.80038445
Itabuna,-14.78556,-39.28028,2302.96689651
Itaete,-12.9794728,-40.9661685,2384.21972883
Itaguaçu,-19.80194,-40.85556,1754.10962095
Itaituba,-4.27611,-55.98361,3067.43397678
Itajaí,-26.90778,-48.66194,646.757704973
Itajubá,-22.42556,-45.45278,1239.9195141
Itajuipe,-14.6744381,-39.3759427,2307.71742934
Itajá,-19.0673379,-51.5495141,1409.68579659
Itapecerica Da Serra,-23.7176303,-46.8492435,1043.56900636
Itapejara D'Oeste,-25.9618847,-52.815217,645.598918604
Itaperuna,-21.205,-41.88778,1565.64071362
Itaperuçu,-25.22,-49.34778,782.986331577
Itapetinga,-15.24889,-40.24778,2203.94849617
Itapetininga,-23.59167,-48.05306,1000.11242318
Itapeva,-23.98222,-48.87556,928.120546814
Itapipoca,-3.49444,-39.57861,3403.40291805
Itapira,-22.43611,-46.82167,1169.87841329
Itapiranga,-27.1719977,-53.7118734,526.873208194
Itaquaquecetuba,-23.48611,-46.34833,1091.73714355
Itaqui,-29.12528,-56.55306,499.567355138
Itaquiraí,-23.4708,-54.19281,937.7840682
Itatiba,-23.00583,-46.83889,1113.02529896
Itatiba Do Sul,-27.3716897,-52.4755664515,487.918363884
Itaúna,-20.07528,-44.57639,1510.23689883
Itu,-23.26417,-47.29917,1065.93537477
Itumbiara,-18.41917,-49.21528,1512.2005242
Itá,-27.2441,-52.33213,501.88714547
Ivaiporã,-24.2823,-51.63284,832.928646455
Ivaí,-24.99384,-50.86192,765.050112128
Ivinhema,-22.38076,-53.75565,1049.96114385
Ivoti,-29.59111,-51.16056,266.980497406
Jaboticabal,-21.25472,-48.32222,1231.94024549
Jacareí,-23.30528,-45.96583,1129.42139036
Jacutinga,-22.28556,-46.61222,1194.50858414
Jaguaraçu,-19.63591,-42.71705,1653.68174744
Jaguari,-29.45245,-54.64626,338.979437565
Jaguariaiva,-24.2589699,-49.7201518,871.518160419
Jaguaripe,-13.12834,-39.01339,2473.61126974
Jaguarão,-32.56611,-53.37583,131.355028279
Jales,-20.26889,-50.54583,1286.98487301
Janaúba,-15.8025,-43.30889,1991.79488996
Jandira,-23.5275,-46.9025,1059.19203103
Jaraguá do Sul,-26.48611,-49.06667,666.882079383
Jardinópolis,-21.01778,-47.76389,1275.67479493
Jataí,-17.87939,-51.72166,1540.20015868
Jateí,-22.73989,-53.81496,1011.35899601
Jauru,-15.32452,-58.8458,1937.66372986
Jaú,-22.29639,-48.55778,1114.82159244
Jeceaba,-20.55578,-44.03107,1493.54726796
Ji-Paraná,-10.83398,-61.96014,2520.83376344
Jitauna,-14.017019,-39.8889976,2340.52077205
Joanópolis,-22.93028,-46.27556,1148.43129724
Joaquim Gomes,-9.10352,-35.73739,3040.35143155
Joaçaba,-27.17806,-51.50472,515.639577044
Joinville,-26.30444,-48.84556,695.036391267
João Lisboa,-5.22723,-47.1826,2987.44858562
João Monlevade,-19.81,-43.17361,1611.30528766
João Neiva,-19.7575,-40.38556,1788.98186023
João Pessoa,-7.115,-34.86306,3278.12084918
Juara,-11.09828,-57.49159,2349.66520108
Juazeiro,-9.39679,-40.23381,2775.17787532
Juiz de Fora,-21.76417,-43.35028,1423.21399688
Jundiaí,-23.18639,-46.88417,1093.20900996
Jundiaí do Sul,-23.47919,-50.18065,943.326688906
Junqueirópolis,-21.51472,-51.43361,1140.07747757
Juquitiba,-23.93167,-47.06833,1011.89820732
Juquiá,-24.32083,-47.63472,946.312380664
Juscimeira,-16.20525,-54.88029,1743.2520524
Júlio de Castilhos,-29.22694,-53.68167,310.041136003
Lacerdópolis,-27.25354,-51.58504,506.190271562
Ladainha,-17.64365,-41.83262,1889.52791267
Ladário,-19.00472,-57.60167,1509.48964189
Lafayette,30.2240897,-92.0198427,8039.83265548
Lages,-27.81611,-50.32611,479.853225232
Lagoa Salgada,-6.12321,-35.49513,3337.24940022
Lagoa Vermelha,-28.20861,-51.52583,402.783192309
Lagoão,-29.25902,-52.76687,281.54657315
Laguna,-28.4825,-48.78083,500.689789306
Lajeado,-29.46694,-51.96139,258.137977911
Lajeado Novo,-6.10634,-46.90224,2897.24838282
Lajinha,-20.15139,-41.62278,1674.11388996
Lambari,-21.97556,-45.35028,1287.93050557
Lapa,-25.76972,-49.71583,712.897029973
Laranjal Paulista,-23.04972,-47.83667,1063.95300795
Laranjeiras do Sul,-25.40778,-52.41611,705.374345567
Las Vegas,36.1662859,-115.149225,9969.66774368
Lavras,-21.24528,-44.99972,1375.96978552
Lavras do Sul,-30.8498,-54.0283,190.274693504
Lebon Régis,-26.88524,-50.67811,565.231854032
Lençóis Paulista,-22.59861,-48.80028,1075.15094599
Liberato Salzano,-27.53845,-53.07401,474.578879065
Lima,-12.0621065,-77.0365256,3341.16118384
Limbe,-15.8241847,35.053104,8862.24801247
Limeira,-22.56472,-47.40167,1131.2335888
Limeira do Oeste,-19.38786,-50.6128,1382.85279715
Lindoeste,-25.26796,-53.5687,730.731356696
Lindolfo Collor,-29.57482,-51.22786,265.966425052
Lindóia do Sul,-27.03246,-52.04059,526.152776009
Lins,-21.67861,-49.7425,1147.74538171
Lisboa,38.7077507,-9.1365919,8994.11616204
Londrina,-23.31028,-51.16278,944.853275989
Lorena,-22.73083,-45.12472,1229.86378537
Louveira,-23.08639,-46.95056,1099.78445403
Lucas do Rio Verde,-13.04098,-56.15577,2110.65794214
Luzerna,-27.07656,-51.49348,526.924147773
Luziânia,-16.2525,-47.95028,1775.56136652
Macapá,0.03889,-51.06639,3523.43106017
Macaé,-22.38484,-41.78324,1474.37562152
Maceió,-9.66583,-35.73528,2987.90593975
Madrid,40.4167047,-3.7035825,9431.44980219
Mafra,-26.11139,-49.80528,674.319700826
Mairinque,-23.54583,-47.18333,1043.67571902
Mairiporã,-23.31861,-46.58667,1095.2480059
Makokou,0.5627265,12.8529149,7720.28316774
Manaus,-3.10194,-60.025,3274.05493042
Mandaguari,-23.5475,-51.67083,913.790866618
Mangueirinha,-26.03649,-52.22257,635.794233654
Manhuaçu,-20.25806,-42.03361,1638.74524408
Marabá,-5.38146,-49.13232,2940.61613832
Maranhãozinho,-2.45247,-45.98846,3313.13179051
Maratá,-29.54921,-51.55693,257.662427897
Marau,-28.44917,-52.2,368.599700204
Maravilha,-26.7623898,-53.1747387,561.114167616
Marechal Cândido Rondon,-24.55611,-54.05667,817.165635092
Mariana,-20.37778,-43.41611,1544.80513668
Maringá,-23.42528,-51.93861,925.784292623
Marques de Souza,-29.27327,-52.1572,277.576145212
Martinópolis,-22.14583,-51.17083,1072.91488036
Marília,-22.21389,-49.94583,1085.36075791
Mata,-29.54895,-54.44545,318.350971238
Mata De São João,-12.530685,-38.300898,2570.40636529
Matelândia,-25.24083,-53.99639,741.683639802
Matão,-21.60333,-48.36583,1193.87337637
Mauá,-23.66778,-46.46139,1068.5512326
Medellín,6.2443382,-75.573553,4877.10284554
Medianeira,-25.29528,-54.09389,737.943285989
Melo,-32.3681117,-54.1701271,184.792659783
Mercedes,-24.426,-54.17683,833.760035819
Mesquita,-22.783092,-43.4293599,1329.54708256
Minas do Leão,-30.07189,-52.11996,189.677684574
Minaçu,-13.42682,-48.3878,2071.40568781
Mineiros,-17.56944,-52.55111,1573.37610935
Miracema,-21.41222,-42.19667,1527.58299114
Miraguaí,-27.48658,-53.75549,494.316157434
Mirandópolis,-21.12459,-51.15123,1185.63075971
Mirante Da Serra,-11.0321694,-62.6717012,2530.30018095
Mococa,-21.46778,-47.00472,1258.83118683
Modelo,-26.7729,-53.05042,558.346228177
Mogi Guaçu,-22.3677,-46.94552,1171.01008018
Mogi Mirim,-22.43194,-46.95778,1164.06476769
Mogi das Cruzes,-23.52278,-46.18833,1096.90544121
Mondaí,-27.08404,-53.43972,530.405392237
Monte Aprazível,-20.7725,-49.71417,1246.48430196
Monte Santo de Minas,-21.18972,-46.98028,1288.06149443
Montenegro,-29.68861,-51.46111,245.906713232
Montes Claros,-16.735,-43.86167,1873.1825421
Montes Claros De Goiás,-16.0059459,-51.3978781,1748.88400603
Montevidéu,-4.1718285,-40.9554675,3278.97744269
Montividiu,-17.25815,-51.15739,1612.12819844
Morrinhos,-17.73111,-49.09944,1589.28100079
Morro Agudo De Goiás,-15.3184299,-50.0552811,1837.0828553
Morro Redondo,-31.63833,-52.63569,31.494703683
Mostardas,-30.92226,-50.85421,170.089923665
Mundo Novo,-11.85889,-40.4725,2519.00985431
Muquem De São Francisco,-12.0650162,-43.5497188,2361.22004293
Muriaé,-21.13056,-42.36639,1540.95955346
Mutum,-19.8,-41.43833,1716.73922641
Muçum,-29.14017,-51.8233,295.987786963
Mãe Do Rio,-1.98909025,-47.5075024293,3335.48229227
Natal,-5.795,-35.20944,3384.43909978
Natividade,-21.04222,-41.97333,1574.00978781
Natércia,-22.13227,-45.49689,1265.25941924
Naviraí,-23.065,-54.19056,981.922689065
Nhandeara,-20.6897,-50.0407,1249.08319499
Nilópolis,-22.8075,-43.41389,1328.47866866
Nioaque,-21.18151,-55.75856,1221.58974667
Niterói,-22.88333,-43.10361,1342.65364181
Nonoai,-27.36903,-52.8759,490.769470541
Nortelândia,-14.45472,-56.80278,1970.95016673
Nova Bassano,-28.70293,-51.80542,344.123407079
Nova Bréscia,-29.20206,-52.04822,286.296036383
Nova Cantu,-24.65652,-52.56315,788.85399092
Nova Erechim,-26.91297,-52.89851,541.273880926
Nova Esperança Do Sul,-29.4085261,-54.8135328591,353.271110901
Nova Iguaçu,-22.75917,-43.45111,1330.17006361
Nova Iguaçu De Goiás,-14.2868289,-49.3871911,1959.75130797
Nova Lima,-19.98556,-43.84667,1557.38807556
Nova Maringá,-12.98384,-57.19167,2138.93996255
Nova Palma,-29.4071,-53.4324,282.23777064
Nova Petrópolis,-29.37639,-51.11444,290.523489413
Nova Prata,-28.78389,-51.61,338.658419283
Nova Prata do Iguaçu,-25.60849,-53.38052,690.580540274
Nova Pádua,-29.01222,-51.31451,321.4902217
Nova Redenção,-12.87403,-41.12335,2386.81610563
Nova Resende,-21.09898,-46.41684,1321.32565146
Nova Russas,-4.70667,-40.56306,3238.78619866
Nova Santa Rita,-29.8468808,-51.2917859128,235.918286173
Nova Timboteua,-1.12059,-47.42089,3431.90781733
Nova Veneza,-22.8281645,-47.1915712302,1114.08861531
Novo Hamburgo,-29.67833,-51.13056,259.50802583
Novo Machado,-27.55482,-54.53613,513.392826975
Novo Triunfo,-10.34787,-38.40211,2773.03016783
Nuestra Señora de La Paz,36.6868875,-6.128004,8977.18884229
Não-Me-Toque,-28.47423,-52.80396,368.259898044
Oliveira Dos Brejinhos,-12.3193308,-42.8914271,2361.82889703
Osasco,-23.5325,-46.79167,1064.27610687
Osvaldo Cruz,-21.79667,-50.87861,1114.78104922
Osório,-29.88667,-50.26972,288.106628338
Oulu,65.0118734,25.4716809,12617.4960946
Ourinhos,-22.97889,-49.87056,1004.47391486
Ouro Branco,-20.52334,-43.69486,1515.40270826
Ouro Preto,-20.39484,-43.50517,1538.12278059
Paim Filho,-27.72984,-51.78102,451.337480003
Palmares do Sul,-30.25778,-50.50972,242.500217639
Palmeira,-25.42944,-50.00639,739.074128557
Palmeira das Missões,-27.89944,-53.31361,439.398579469
Palmital,-22.78889,-50.2175,1017.3160453
Palmitinho,-27.32268,-53.5922,507.820232375
Palmitos,-27.08066,-53.17812,526.273500338
Palotina,-24.28389,-53.84,842.762341969
Panambi,-28.2925,-53.50167,401.575669871
Panamá,-18.20132,-49.3889,1532.3646218
Pantano Grande,-30.25817,-52.34168,167.831325611
Paraguaçu Paulista,-22.41278,-50.57583,1051.69318032
Paraibuna,-23.48123,-45.63778,1131.58193287
Paraipaba,-3.43944,-39.14833,3426.95425225
Paramirim,-13.4425,-42.23889,2277.10093909
Paranacity,-22.84648,-52.13457,989.241062391
Paranaguá,-25.51626,-48.52537,787.210257152
Paranatinga,-13.34326,-54.01552,2048.02426466
Paranavaí,-23.07306,-52.46528,964.011656005
Paranaíba,-19.67722,-51.19083,1344.8737031
Parauapebas,-6.18558,-50.55474,2838.67947245
Paraí,-28.59575,-51.79731,355.990144202
Parintins,-2.62833,-56.73583,3258.67412695
Paris,48.8566101,2.3514992,10448.9672185
Parnamirim,-5.9153334,-35.2679913,3369.66759422
Passagem Franca,-6.17972,-43.78361,2970.00915128
Passo Fundo,-28.26278,-52.40667,389.049825028
Passos,-20.71889,-46.60972,1351.26019362
Pato Branco,-26.22861,-52.67056,615.231565196
Patos de Minas,-18.57889,-46.51806,1574.21421195
Patrocínio,-18.94389,-46.9925,1519.03471126
Patrocínio Paulista,-20.68707,-47.28437,1327.53535764
Paulistânia,-22.57816,-49.29587,1062.37325551
Paulo Afonso,-9.40611,-38.21472,2874.21014322
Paulo Frontin,-26.04279,-50.7477,653.72980345
Paverama,-29.59556,-51.72344,248.464986299
Pederneiras,-22.35167,-48.775,1101.95139212
Pedralva,-22.25067,-45.45324,1256.37773235
Pedras Altas,-31.83276,-53.63272,122.363003303
Pedreiras,-4.58272,-44.59924,3116.61853496
Pedro Leopoldo,-19.61806,-44.04306,1581.87940135
Pedro Osório,-31.9576,-52.89419,56.1195741061
Pelotas,-31.77194,-52.3425,0.0
Penha,-26.76944,-48.64583,660.563303304
Penápolis,-21.41972,-50.0775,1168.88895097
Pereira,4.8142912,-75.6946451,4745.98357647
Pereira Barreto,-20.63833,-51.10917,1239.63933732
Petrolândia,-8.9701861,-38.2213655,2916.32794658
Petrópolis,-22.505,-43.17861,1369.70445118
Picada Café,-29.44757,-51.11522,283.280728842
Piedade,-23.71194,-47.42778,1015.79326003
Piedade De Caratinga,-19.7601211,-42.0767321,1680.55655801
Piedade Do Rio Grande,-21.4679371,-44.1939394,1399.49879695
Pindamonhangaba,-22.92389,-45.46167,1192.92002713
Pinhalzinho,-22.7824349,-46.5901718,1146.89888317
Pinheiro Machado,-31.57833,-53.38111,100.798099962
Piracicaba,-22.72528,-47.64917,1104.58992633
Pirajuí,-21.99861,-49.45722,1120.05902115
Pirangi,-21.08566,-48.67186,1239.04966267
Pirapora,-17.345,-44.94194,1763.79508503
Pirapó,-28.05287,-55.2346,497.902290759
Piraquara,-25.44227,-49.06795,771.034006985
Pirassununga,-21.99611,-47.42583,1187.80856611
Piratini,-31.41655,-53.11163,82.9525007241
Piraí,-22.62917,-43.89806,1312.79343202
Piraí Do Sul,-24.5343967,-49.9393852,836.011186887
Pires do Rio,-17.29972,-48.27944,1654.65991771
Piên,-26.08649,-49.45641,690.034887974
Planaltina,-15.21463,-47.88678,1888.85802797
Planalto,-14.6689214,-40.481006,2245.92266904
Ponta Grossa,-25.095,-50.16194,770.139476746
Ponta Porã,-22.53611,-55.72556,1076.72868099
Pontes E Lacerda,-15.2325947,-59.3335922,1964.65183901
Porangatu,-13.44083,-49.14861,2056.12990423
Porto Alegre,-30.03306,-51.23,220.17307355
Porto Alegre Do Norte,-10.8792851,-51.6391975,2314.58247453
Porto Estrela,-15.51966,-57.22942,1867.14100402
Porto Lucena,-27.84663,-54.96059,503.319832693
Porto Novo,6.4990718,2.6253361,7203.41185594
Porto Seguro,-16.44972,-39.06472,2164.18683443
Porto União,-26.23806,-51.07833,625.5821586
Porto Velho,-8.76194,-63.90389,2814.41922895
Porto Vitória,-26.25338,-51.24188,620.971852289
Porto Xavier,-27.93317,-55.15422,504.809483749
Portão,-29.70167,-51.24194,252.557607136
Posse,-14.09306,-46.36944,2050.41291101
Pouso Alegre,-22.23,-45.93639,1233.04721381
Poço das Antas,-29.45339,-51.66969,265.011535054
Poços de Caldas,-21.78778,-46.56139,1246.11872754
Prado,-17.34111,-39.22083,2075.04660563
Praia Grande,-24.00583,-46.40278,1040.04332239
Presidente Prudente,-22.12556,-51.38889,1073.02898815
Presidente Venceslau,-21.87611,-51.84389,1097.59666057
Primavera Do Leste,-15.5614127,-54.2993946,1806.40060996
Progresso,-29.22873,-52.3096,281.960505977
Promissão,-21.53667,-49.85806,1160.60239345
Puebla de Zaragoza,19.0437227,-98.1984744,7453.37515497
Pérola D`Oeste,-25.827794,-53.743333,672.828301384
Quaraí,-30.3875,-56.45139,421.02439082
Quatiguá,-23.55499,-49.91985,941.318244442
Quedas Do Iguaçu,-25.453001,-52.9090429,702.512354731
Querência Do Norte,-23.083758,-53.483022,969.310081621
Quilombo,-26.72644,-52.67673,560.186285953
Realeza,-25.76889,-53.5325,675.387982097
Rebouças,-25.68296,-50.63115,695.217710762
Recife,-8.05389,-34.88111,3188.78144807
Redentora,-27.56833,-53.60924,481.809664565
Redenção,-4.22583,-38.73056,3364.87083703
Registro,-24.4875,-47.84361,920.076985772
Remanso,-9.54115,-42.36956,2668.15939641
Resende,-22.46889,-44.44667,1293.40613248
Resplendor,-19.32556,-41.25528,1770.25431905
Restinga Sêca,-29.79890865,-53.4178348339,241.743570895
Ribeira Do Amparo,-11.0412527,-38.4299461,2704.75999263
Ribeirão Preto,-21.1775,-47.81028,1257.40973604
Rio Branco,-9.97472,-67.81,2892.82730046
Rio Claro,-22.410833,-47.560833,1140.12902347
Rio Grande,-32.035,-52.09861,37.1897963055
Rio Negro,-26.10583,-49.7975,675.173075624
Rio Novo,-21.47703,-43.12589,1462.5879537
Rio Novo do Sul,-20.8625,-40.93639,1658.41942822
Rio Pardo,-29.98972,-52.37806,197.619458661
Rio Pardo de Minas,-15.60972,-42.53972,2047.74187585
Rio Piracicaba,-19.92917,-43.17417,1600.20649269
Rio Verde,-17.71888,-51.04215,1562.19818644
Rio de Janeiro,-22.90642,-43.18223,1335.45082466
Rio do Sul,-27.21417,-49.64306,568.929359626
Rivera,-47.28869105,-66.9026830276,2121.85929905
Roca Sales,-29.22637,-51.8244,286.552450369
Rocha,-34.4810095,-54.3365608,353.39020873
Rodeio Bonito,-27.46968,-53.17038,483.577193858
Rolante,-29.65056,-50.57583,289.731135879
Ronda Alta,-27.82614,-52.72873,438.978907107
Rondinha,-27.83287,-52.91661,440.154039914
Rondonópolis,-16.47083,-54.63556,1710.62177374
Roque Gonzales,-28.05673,-55.12048,491.448676119
Rosana,-22.4925,-52.81942,1029.30950703
Rosário do Sul,-30.25833,-54.91417,297.412798295
Sabinópolis,-18.66611,-43.08389,1723.85664827
Salinas Da Margarida,-12.8733508,-38.7593794,2512.03417271
Salto Do Jacuí,-29.0899771,-53.2111244,308.805669205
Salvador,-12.97111,-38.51083,2516.99013807
Salvador do Sul,-29.48006,-51.51407,266.206443307
Sananduva,-27.94972,-51.80667,426.84332269
Santa Bárbara do Sul,-28.37429,-53.25738,386.827803852
Santa Cruz Cabrália,-16.27806,-39.02472,2182.08638816
Santa Cruz Do Rio Pardo,-22.88358245,-49.6109217615,1021.2138081
Santa Cruz do Sul,-29.7175,-52.42583,227.905490928
Santa Gertrudes,-22.45667,-47.53028,1136.73941536
Santa Helena,-2.23111,-45.3,3352.35143122
Santa Helena De Goiás,-17.8115199,-50.5976641,1556.39407656
Santa Isabel,-23.31556,-46.22139,1114.62076415
Santa Isabel do Rio Negro,-0.41389,-65.01917,3718.52234451
Santa Izabel Do Oeste,-25.7769504,-53.4234991455,672.758669761
Santa Luzia,-6.8677854,-36.9182757,3189.11395702
Santa Lúcia,-21.671,-48.0445374046,1197.75507812
Santa Maria,-29.68417,-53.80694,270.630284011
Santa Maria Da Boa Vista,-8.7784542,-39.8727980886,2853.94330638
Santa Maria da Vitória,-13.38814,-44.19868,2199.31425782
Santa Rita Do Passa Quatro,-21.6785,-47.5198208333,1216.51040591
Santa Rita Do Sapucaí,-22.2486968,-45.7064507,1243.13118208
Santa Rosa,-27.87083,-54.48139,479.280486929
Santa Rosa De Viterbo,5.8746789,-72.9825064,4707.32186035
Santa Rosa Viterbo,42.42030675,12.1096811687,10525.7113489
Santa Rosa do Purus,-9.4773,-70.39032,3092.64904731
Santa Tereza De Goiás,-13.713116,-49.0164361,2028.56316804
Santa Terezinha De Itaipu,-25.4390809,-54.4019902,730.148799052
Santa Vitória do Palmar,-33.51889,-53.36806,216.309927494
Santana De Parnaíba,-23.443889,-46.917778,1066.52850812
Santana da Boa Vista,-30.76195,-53.18297,137.646518547
Santana do Livramento,-30.89083,-55.53278,318.940131941
Santarém,-2.44306,-54.70833,3255.89745115
Santiago,-29.19167,-54.86722,374.923294349
Santo Amaro,-12.54667,-38.71194,2545.60916953
Santo André,-23.66389,-46.53833,1064.83476254
Santo Antão,17.05620035,-25.1718233486,6132.71316743
Santo Antônio da Patrulha,-29.82214,-50.56024,275.348290056
Santo Antônio das Missões,-28.47797,-55.40876,469.671447286
Santo Augusto,-27.85083,-53.77722,456.227516777
Santo Cristo,-27.78844,-54.70378,497.064541614
Santo Ângelo,-28.29917,-54.26306,427.191693848
Santos,-23.96083,-46.33361,1048.05274313
Santos Dumont,-21.45667,-43.5525,1438.29036837
Sapiranga,-29.63806,-51.00694,268.944778862
Sapucaia do Sul,-29.81826,-51.15527,244.58652899
Saquarema,-22.92,-42.51028,1380.13305528
Sarandi,-27.942,-52.923085,428.237376229
Saudades,-26.879,-53.04038,546.555736325
Seara,-27.14478,-52.34857,512.891787209
Seberi,-27.50884,-53.36482,482.798781231
Segredo,-29.29705,-52.92281,279.963114016
Selbach,-28.67641,-52.98236,348.641273796
Seropédica,-22.74389,-43.7075,1314.90147611
Serra,-20.12861,-40.30778,1762.77634795
Serra Preta,-12.06913,-39.3005,2558.97418457
Sertãozinho,-21.13778,-47.99028,1255.25430311
Sete Lagoas,-19.46583,-44.24667,1585.98545901
Sete Quedas,-23.88066,-55.02727,913.506051714
Severiano de Almeida,-27.40649,-52.10747,484.426846672
Sidrolândia,-20.93194,-54.96139,1228.99730785
Silveira Martins,-29.63635,-53.54609,263.337962278
Silvianópolis,-22.05297,-45.81579,1256.23737501
Sinimbu,-29.41512,-52.60499,262.492785879
Sinop,-11.86417,-55.5025,2228.22647526
Sirinhaém,-8.59083,-35.11611,3124.75146868
Skövde,58.3898453,13.8443792,11715.5738828
Sobradinho,-12.83333,-39.1,2496.75215986
Sobral,-3.68611,-40.34972,3352.7003507
Soledade,-28.8272467,-52.5109157,326.843300103
Soledade De Minas,-22.060278,-45.045,1296.53209472
Sombrio,-29.11389,-49.61667,394.154285117
Sorocaba,-23.50167,-47.45806,1035.13931514
Suzano,-23.5425,-46.31083,1088.42565027
São Bento Do Sapucaí,-22.680635,-45.6864089821,1203.24858255
São Bernardo do Campo,-23.69389,-46.565,1060.58371184
São Borja,-28.66056,-56.00444,493.145026637
São Caetano do Sul,-23.62306,-46.55111,1068.03336155
São Carlos,-22.0175,-47.89083,1167.44213278
São Carlos Do Ivaí,-23.315828,-52.476143,937.142371756
São Domingos Do Sul,-28.5315,-51.8704740399,362.084871204
São Francisco De Assis Do Piauí,-8.2359895,-41.6872869,2829.9372135
São Francisco De Itabapoana,-21.4743369,-41.1118362,1595.58315115
São Francisco de Paula,-29.44806,-50.58361,307.9160247
São Gabriel,-30.33639,-54.32,246.890098166
São Gabriel Da Cachoeira,-0.11909,-67.084042,3832.00586759
São Gonçalo,-22.81555,-43.04112,1352.5265513
São Gonçalo Do Piauí,-5.9966226,-42.7030389,3024.89082558
São Gonçalo Dos Campos,-12.4339991,-38.9488082,2543.13559784
São Jerônimo,-29.95917,-51.72222,209.547537054
São Jerônimo Da Serra,-23.7221275,-50.7389164,905.911311991
São Joaquim,-28.29389,-49.93167,450.2092672
São Joaquim Da Barra,-20.5817899,-47.8606374,1317.83719156
São Joaquim De Bicas,-20.0489052,-44.2731691,1528.5274725
São Jorge D'Oeste,-25.7086966,-52.9189882,674.352850587
São José,-28.21171,-49.1632,499.806562814
São José Da Bela Vista,-19.48729055,-46.0857285914,1498.1348467
São José Da Varginha,-19.7087286,-44.5577812,1546.66653638
São José Do Alegre,-22.3306078,-45.5285443,1244.77894351
São José Do Inhacorá,-27.73613185,-54.1315422,479.637902312
São José Do Vale Do Rio Preto,-22.1509994,-42.9239986,1416.64934422
São José Dos Pinhais,-25.533816,-49.2072163,756.154219255
São José Dos Quatro Marcos,-15.627584,-58.177217,1883.54926489
São José da Laje,-9.00972,-36.05833,3030.62133517
São José da Tapera,-9.55833,-37.38111,2904.22083819
São José do Cedro,-26.48127,-53.56285,598.29818178
São José do Norte,-31.80089,-51.76198,55.0755003354
São José do Ouro,-27.7558,-51.55722,451.610502028
São José do Rio Preto,-20.81972,-49.37944,1248.81903922
São José dos Campos,-23.17944,-45.88694,1145.51414469
São João,-8.87556,-36.36667,3025.78233124
São João Da Canabrava,-6.8165672,-41.3456887,2989.89583348
São João Da Urtiga,-27.78786675,-51.8467123716,444.222937511
São João De Meriti,-22.8043744,-43.3724125,1331.46785234
São João Del Rei,-21.1335755,-44.2588086,1426.81616722
São João da Boa Vista,-21.96917,-46.79806,1217.3568238
São João do Oeste,-27.0831,-53.59218,533.669905606
São Leopoldo,-29.76028,-51.14722,250.661838924
São Lourenço,-22.11639,-45.05444,1290.7652247
São Lourenço do Oeste,-26.35917,-52.85111,601.974688021
São Lourenço do Sul,-31.36528,-51.97833,56.8182606841
São Luiz Gonzaga,-28.40833,-54.96083,450.222700108
São Luís,-2.52972,-44.30278,3344.88446542
São Luís do Quitunde,-9.31833,-35.56111,3030.59421083
São Manuel,-22.73111,-48.57056,1068.93290731
São Marcos,-28.97111,-51.06806,333.780724331
São Miguel do Iguaçu,-25.34806,-54.23778,735.66347067
São Miguel do Oeste,-26.71868,-53.5194,571.654281424
São Paulo,-23.5475,-46.63611,1070.79615976
São Paulo De Olivença,-3.4650627,-68.9468462,3583.13791936
São Paulo das Missões,-27.96215,-54.95513,491.952263046
São Pedro Da Serra,-29.41902415,-51.4911435772,273.326910199
São Pedro da Aldeia,-22.83917,-42.10278,1415.20250418
São Pedro do Sul,-29.62056,-54.17889,296.366527737
São Roque,-23.52917,-47.13528,1047.61441071
São Roque Do Canaã,-19.71140325,-40.6383050923,1776.17944623
São Sebastião,38.52734715,-8.85704212519,8992.41644347
São Sebastião Do Paraíso,-20.916945,-46.991389,1315.39296829
São Sebastião do Caí,-29.58667,-51.37556,259.376891583
São Sepé,-30.16056,-53.56528,213.452217962
São Vicente,-23.96306,-46.39194,1044.62270619
São Vicente De Minas,-21.703333,-44.443889,1363.47115478
São Vicente do Sul,-29.71725,-54.76241,324.919348145
Tabatinga,-4.2327349,-69.9263372,3559.51248545
Taboão Da Serra,-23.6121912,-46.7790539,1057.26238318
Taió,-27.08902,-50.09933,562.811318993
Tallahassee,30.4380832,-84.2809332,7666.73339654
Tamarana,-23.82556,-51.04683,889.777074276
Tangará,-6.19944,-35.80167,3313.25039466
Tangará da Serra,-14.52323,-58.09862,1998.18151152
Tapejara,-28.069233,-52.0117161,411.690011319
Tapera,-28.66758,-52.8662,347.809690246
Tapes,-30.67333,-51.39583,151.566320375
Taquara,-29.65056,-50.78056,278.734242542
Taquarana,-9.645,-36.49722,2945.52387678
Taquari,-29.79972,-51.86444,223.387631472
Taquaritinga Do Norte,-7.8721562,-36.1788029212,3131.90169065
Taquarituba,-23.53306,-49.24444,962.657066554
Tatuí,-23.35556,-47.85694,1032.18031085
Taubaté,-23.02639,-45.55528,1178.16497831
Tavares,-7.63583,-37.87833,3064.54837092
Teixeira De Freitas,-17.5376644,-39.7458096,2024.19683159
Telêmaco Borba,-24.32389,-50.61556,842.638696449
Tenente Portela,-27.36291,-53.77115,507.931833711
Teodoro Sampaio,-22.5325,-52.1675,1023.94413647
Teresina,-5.08917,-42.80194,3117.06448998
Teresina De Goiás,-13.7789573,-47.266894,2058.87670566
Terra Nova Do Norte,-10.5995196,-55.1167029,2361.73807317
Terra Roxa,-23.85571,-50.0314,906.244765548
Teutônia,-29.44806,-51.80639,262.709481949
Teófilo Otoni,-17.8575,-41.50528,1888.3568909
Tietê,-23.10194,-47.71472,1063.77286325
Tijucas,-27.24139,-48.63361,617.551722524
Tijucas Do Sul,-25.9273376,-49.179265,717.447038692
Timbó,-26.82333,-49.27167,624.312849247
Timóteo,-19.58106,-42.64953,1662.66507152
Toledo,-24.71361,-53.74306,794.189800064
Tome-Açu,-2.4166306,-48.1522907,3278.95034009
Torres,-29.33528,-49.72694,368.682724259
Torreón,25.542698,-103.4105122,8346.66446201
Tramandaí,-29.98472,-50.13361,289.600768604
Tremembé,-22.95833,-45.54944,1184.80537031
Trindade Do Sul,-27.52545975,-52.9021254899,473.814465603
Trombudo Central,-27.30803,-49.81251,552.180699868
Três Corações,-21.69694,-45.25333,1319.54699194
Três Coroas,-29.51694,-50.77778,291.528578958
Três Lagoas,-20.78765,-51.70338,1218.6617742
Três Passos,-27.45556,-53.93194,502.589976632
Três Pontas,-21.36667,-45.5125,1337.85669803
Três Ranchos,-18.36835,-47.7985,1553.4605931
Três Rios,-22.11667,-43.20917,1401.19636955
Três de Maio,-27.77333,-54.24,479.694454772
Tubarão,-28.46667,-49.00694,487.357593955
Tucunduva,-27.64923,-54.43972,499.990388003
Tucuruí,-3.76585,-49.67923,3112.6537382
Tunas,-29.10586,-52.89867,300.349487167
Tunja,5.5324647,-73.3614182,4692.44360612
Tupaciguara,-18.59222,-48.705,1505.03904145
Tupanatinga,-8.75333,-37.33972,2983.87859456
Tupanciretã,-29.08056,-53.83583,331.053828037
Tuparendi,-27.68918,-54.55912,500.764154834
Turmalina,-17.28556,-42.73,1874.85372699
Turuçu,-31.52317,-52.1287,34.2362801908
Turvo,-28.9277445,-49.6792206,406.145825997
Tutóia,-2.76194,-42.27444,3380.18815109
Ubatuba,-23.43389,-45.07111,1169.2761124
Uberaba,-19.74833,-47.93194,1403.18118278
Uberlândia,-18.91861,-48.27722,1481.14500686
Ubá,-21.12,-42.94278,1505.6449826
Umuarama,-23.76639,-53.325,892.40395577
Unaí,-16.3575,-46.90611,1793.81404278
União Da Vitória,-26.2283746,-51.0674424,626.844432027
Urbano Santos,-3.20778,-43.40361,3297.59423937
Urucará,-2.53639,-57.76,3285.61602839
Uruguaiana,-29.75472,-57.08833,506.345000848
Vacaria,-28.51222,-50.93389,385.988784526
Valente,-11.41222,-39.46194,2614.05172421
Valinhos,-22.97056,-46.99583,1109.01505036
Valladolid,41.6521328,-4.728562,9482.26263628
Valledupar,10.3430015,-73.3758957704,5171.46664493
Vargem Grande Do Sul,-21.832194,-46.891286,1226.93965033
Varginha,-21.55139,-45.43028,1324.23172453
Vassouras,-22.40389,-43.6625,1347.35470056
Venâncio Aires,-29.60639,-52.19194,240.514862861
Veranópolis,-28.93611,-51.54944,323.486216243
Vereda,-17.14998,-40.04873,2040.12844648
Viamão,-30.08111,-51.02333,225.909961734
Videira,-27.00833,-51.15167,540.501960712
Vila Bela Da Santíssima Trindade,-15.0067744,-59.9504291,2011.40937917
Vila Velha,-20.32972,-40.2925,1746.96732177
Vilhena,-12.74056,-60.14583,2253.80414534
Vinhedo,-23.02972,-46.97528,1104.16805282
Virgínia,-22.35515,-45.11577,1265.10009279
Visconde Do Rio Branco,-21.01,-42.840833,1521.73639743
Vitorino,-26.24047,-52.81976,614.846159688
Vitória,-20.31944,-40.33778,1744.72447219
Vitória Da Conquista,-14.8567487,-40.8414804,2208.42278789
Vitória Do Jari,-1.0189452,-52.0506679915,3404.03320215
Viçosa,-20.7538586,-42.8815888,1542.14924223
Volta Redonda,-22.52306,-44.10417,1309.33088836
Votorantim,-23.54667,-47.43778,1031.62104259
Votuporanga,-20.42278,-49.97278,1279.41966921
Várzea Grande,-15.64667,-56.1325,1826.93157512
Westfália,-29.4221238,-51.7655231,266.317077287
Xanxerê,-26.87694,-52.40417,542.602137538
Xaxim,-26.98685,-52.51611,530.658230403
Xique-Xique,-10.83393,-42.5632,2527.41310211
Água Boa,-14.0522968,-52.1617625,1962.51882152
Água Santa,-28.18543,-52.01286,398.842677379
Águas De Chapecó,-27.0741119,-52.9879048,524.470613139
Águas De Lindóia,-22.475,-46.609125,1176.02857919
Águas De São Pedro,-22.60108965,-47.875884262,1108.05736005
